OBJECTID,ID,Currency,Management,Tariff_str,Combined_w,Separate_s,Meter_size,Water_bill,City_Name,State_Prov,Country,Latitude,Longitude
1,236,DKK, ,linear,no,no, ,3.320000000000000,Aarhus,Central Jutland,Denmark,56.156739999999999,10.210760000000001
2,380,XOF,PPP,increasing,no,no, ,0.450000000000000,Abidjan,Abidjan,Côte d'Ivoire,5.309660000000000,-4.012660000000000
3,470,AED,Public,increasing,yes,no, ,0.570000000000000,Abu Dhabi (Emirati citizens),Abu Dhabi,UAE,24.466670000000001,54.366669999999999
4,386,AED,Public,increasing,yes,no, ,2.130000000000000,Abu Dhabi (Expats),Abu Dhabi,UAE,24.466670000000001,54.366669999999999
5,170,MXN,Public,increasing,no,no,1/2"",0.580000000000000,Acapulco,Guerrero,Mexico,16.849419999999999,-99.908910000000006
6,360,GHS,Public,increasing,yes,no, ,1.060000000000000,Accra,Greater Accra,Ghana,5.556020000000000,-0.196900000000000
7,125,TRY,Public,linear,no,no, ,0.700000000000000,Adana,Adana,Turkey,37.001669999999997,35.328890000000001
8,23,ETB,Public,increasing,no,no, ,0.110000000000000,Addis Ababa,Addis Ababa,Ethiopia,9.024970000000000,38.746890000000000
9,255,AUD,Public,increasing,no,no, ,3.060000000000000,Adelaide,South Australia,Australia,-34.928660000000001,138.598630000000014
10,329,USD,public,linear,no,no,5/8""-3/4"",2.070000000000000,Albuquerque,New Mexico,United States,35.084490000000002,-106.651139999999998
11,264,EGP,Public,linear,no,no, ,0.070000000000000,Alexandria,Alexandria,Egypt,31.201760000000000,29.915820000000000
12,1,DZD,Private,increasing,no,no, ,0.200000000000000,Algiers,Algiers,Algeria,36.732250000000001,3.087460000000000
13,554,EUR,Private,increasing,no,no, ,1.780000000000000,Alicante,Valencia,Spain,38.345170000000003,-0.481490000000000
14,36,KZT,Public,linear,no,no, ,0.150000000000000,Almaty,Almaty,Kazakhstan,43.256670000000000,76.928610000000006
15,520,MYR,Public,increasing,no,no, ,0.120000000000000,Alor Setar,Kedah,Malaysia,6.121040000000000,100.360140000000001
16,147,EUR,Public,increasing,no,no,25mm,1.140000000000000,Amadora,Lisbon,Portugal,38.753819999999997,-9.230829999999999
17,269,JOD, ,increasing,no,no, ,0.470000000000000,Amman,Amman,Jordan,31.955220000000001,35.945030000000003
18,160,EUR, ,decreasing,no,no, ,2.680000000000000,Amsterdam,North Holland,Netherlands,52.374029999999998,4.889690000000000
19,471,USD, ,linear,no,no,5/8 & 3/4 inch,2.930000000000000,Anchorage,Alaska,United States,61.218060000000001,-149.900280000000009
20,127,TRY,Public,linear,no,no, ,0.620000000000000,Ankara,Ankara,Turkey,39.919870000000003,32.854270000000000
21,131,TRY,Public,linear,no,no, ,0.560000000000000,Antalya,Antalya,Turkey,36.908119999999997,30.695560000000000
22,40,MGA,Private,increasing,yes,no,12/17mm,0.240000000000000,Antananarivo,Analamanga,Madagascar,-18.913679999999999,47.536130000000000
23,248,EUR, ,increasing,no,no, ,2.030000000000000,Antwerp,Flanders,Belgium,51.219889999999999,4.403460000000000
24,493,WST, ,increasing,no,no, ,0.790000000000000,Apia,Tuamasaga,Samoa,-13.833330000000000,-171.766660000000002
25,76,TMT,Public,linear,no,no, ,0.140000000000000,Ashgabat,Ashgabat,Turkmenistan,37.950000000000003,58.383330000000001
26,510,ERN, ,increasing,yes,no, ,0.460000000000000,Asmara (Middle Income),Maekel,Eritrea,15.338050000000001,38.931840000000001
27,35,KZT,Public,linear,no,no, ,0.110000000000000,Nur-Sultan,Astana Qalasy,Kazakhstan,51.180100000000003,71.445980000000006
28,363,PYG,Public,increasing,no,no, ,0.370000000000000,Asunción,Asunción,Paraguay,-25.286460000000002,-57.646999999999998
29,213,EUR, ,increasing,no,no, ,0.790000000000000,Athens,Attica,Greece,37.983759999999997,23.727840000000000
30,88,USD,public,increasing,no,no, ,1.770000000000000,Atlanta,Georgia,United States,33.749000000000002,-84.387979999999999
31,158,NZD, ,linear,no,no, ,1.030000000000000,Auckland,Auckland,New Zealand,-36.848529999999997,174.763489999999990
32,296,INR,Public,increasing,yes,no,0.5"",0.210000000000000,Aurangabad,Maharashtra,India,19.877569999999999,75.342259999999996
33,414,USD,Public,increasing,no,no,5/8 & 3/4 inch,1.790000000000000,Austin,Texas,United States,30.267150000000001,-97.743060000000000
34,482,IQD,Public,Increasing,no,no, ,0.180000000000000,Baghdad,Baghdad,Iraq,33.340580000000003,44.400880000000001
35,5,AZN,Public,linear,no,no, ,0.210000000000000,Baku,Baki,Azerbaijan,40.377670000000002,49.892009999999999
36,107,USD,Public,linear,no,Yes, ,2.020000000000000,Baltimore,Maryland,United States,39.290379999999999,-76.612189999999998
37,41,XOF,Private,increasing,yes,no,15mm,0.410000000000000,Bamako,Bamako,Mali,12.650000000000000,-8.000000000000000
38,399,BND,Public,increasing,yes,no, ,0.080000000000000,Bandar Seri Begawan,Brunei and Muara,Brunei,4.890350000000000,114.940060000000003
39,297,IDR,Public,increasing,yes,no,1/2"",0.310000000000000,Bandung,West Java,Indonesia,-6.922220000000000,107.606939999999994
40,26,INR,Public,increasing,no,no,15mm,0.180000000000000,Bangalore,Karnataka,India,12.971940000000000,77.593689999999995
41,298,THB,Public,increasing,yes,no, ,0.350000000000000,Bangkok,Bangkok,Thailand,13.753980000000000,100.501440000000002
42,506,XOF, ,increasing,yes,no, ,0.470000000000000,Bangui,Bangui,Central African Republic,4.361220000000000,18.554960000000001
43,501,GMD, ,increasing,no,no, ,0.140000000000000,Banjul,Banjul,Gambia,13.452740000000000,-16.578029999999998
44,139,EUR,Private,increasing,no,no, ,2.660000000000000,Barcelona,Catalonia,Spain,41.388790000000000,2.158990000000000
45,547,RUB,Public,linear,no,no, ,0.390000000000000,Barnaul,Altai Krai,Russia,53.360560000000000,83.763610000000000
46,133,CHF, ,linear,no,Yes,3 m³/hr,2.540000000000000,Basel,Basel-City,Switzerland,47.558390000000003,7.573270000000000
47,483,IQD,Public,increasing,no,no, ,0.180000000000000,Basrah,Basra,Iraq,30.508520000000001,47.780400000000000
48,497,XCD, ,increasing,yes,no, ,0.640000000000000,Basseterre,Saint George Basseterre,Saint Kitts and Nevis,17.295500000000001,-62.724989999999998
49,13,CNY,Public,increasing,no,no, ,0.530000000000000,Beijing,Beijing,China,39.907499999999999,116.397229999999993
50,371,LBP,Public,linear,no,no, ,0.180000000000000,Beirut,Beyrouth,Lebanon,33.893320000000003,35.501570000000001
51,122,GBP,Public,n/a,yes,no,20mm,0.000000000000000,Belfast,Northern Ireland,United Kingdom,54.596820000000001,-5.925410000000000
52,70,RSD,Public,linear,no,no, ,0.540000000000000,Belgrade,Central Serbia,Serbia,44.804009999999998,20.465129999999998
53,402,BZD,Public,increasing,yes,no, ,2.280000000000000,Belize City,Belize,Belize,17.499520000000000,-88.197559999999996
54,435,BZD,Public,increasing,yes,no, ,2.280000000000000,Belmopan,Cayo,Belize,17.250000000000000,-88.766670000000005
55,284,BRL,PPP,increasing,no,no, ,1.310000000000000,Belo Horizonte,Minas Gerais,Brazil,-19.920829999999999,-43.937779999999997
56,217,EUR, ,linear,no,Yes,QN 2.5,2.190000000000000,Berlin,Berlin,Germany,52.524369999999998,13.410530000000000
57,299,INR,Public,fixed,no,no,15mm,0.040000000000000,Bhubaneswar,Odisha,India,20.272410000000001,85.833849999999998
58,142,EUR,Public,increasing,no,no,15mm,0.960000000000000,Bilbao,Basque Country,Spain,43.262709999999998,-2.925280000000000
59,330,USD,public,increasing,no,no,3/4"",0.890000000000000,Billings,Montana,United States,45.783290000000001,-108.500690000000006
60,120,GBP,Private,linear,no,Yes,15mm,2.040000000000000,Birmingham,England,United Kingdom,52.481420000000000,-1.899830000000000
61,331,USD,public,increasing,no,no,5/8"",2.650000000000000,"Birmingham, AL",Alabama,United States,33.520659999999999,-86.802490000000006
62,377,KGS,Public,linear,no,no, ,0.090000000000000,Bishkek,Bishkek,Kyrgyz Republic,42.869999999999997,74.590000000000003
63,508,XOF, ,increasing,yes,no, ,0.230000000000000,Bissau,Bissau,Guinea-Bissau,11.863569999999999,-15.597670000000001
64,285,COP, ,linear,no,no, ,0.800000000000000,Bogotá,Bogota D.C.,Colombia,4.609710000000000,-74.081750000000000
65,332,USD,private,increasing,no,no,<=3/4"",1.320000000000000,Boise,Idaho,United States,43.613500000000002,-116.203450000000004
66,198,EUR,Private,increasing,no,no, ,2.630000000000000,Bologna,Emilia-Romagna,Italy,44.493810000000003,11.338749999999999
67,225,EUR,Private,linear,no,no, ,2.280000000000000,Bordeaux,Nouvelle-Aquitaine,France,44.840440000000001,-0.580500000000000
68,92,USD,Public,increasing,no,no, ,1.880000000000000,Boston,Massachusetts,United States,42.358429999999998,-71.059770000000000
69,533,XCD,Private,fixed,yes,no, ,1.930000000000000,Brades,Saint Peter,Montserrat,16.791830000000001,-62.210580000000000
70,300,BRL,PPP,increasing,no,no, ,1.050000000000000,Brasilia,Federal District,Brazil,-15.779719999999999,-47.929720000000003
71,146,EUR,Public,linear,no,no, ,1.270000000000000,Bratislava,Bratislavský,Slovakia,48.148159999999997,17.106739999999999
72,507,XAF, ,increasing,yes,no,15mm,0.340000000000000,Brazzaville,Brazzaville,Republic of Congo,-4.266130000000000,15.283180000000000
73,224,EUR, ,linear,no,Yes, ,2.710000000000000,Bremen,Bremen,Germany,53.075159999999997,8.807770000000000
74,475,BBD, ,increasing,no,no, ,1.380000000000000,Bridgetown,Saint Michael,Barbados,13.107320000000000,-59.620210000000000
75,252,AUD,Public,increasing,no,no, ,3.510000000000000,Brisbane,Queensland,Australia,-27.467939999999999,153.028089999999992
76,118,GBP,Private,linear,no,Yes,15mm,1.980000000000000,Bristol,England,United Kingdom,51.455230000000000,-2.596650000000000
77,237,CZK,Public,linear,no,no, ,1.710000000000000,Brno,South Moravian,Czech Republic,49.195219999999999,16.607959999999999
78,247,EUR, ,increasing,no,no, ,2.540000000000000,Brussels,Brussels Capital,Belgium,50.850450000000002,4.348780000000000
79,56,RON,Private,linear,no,Yes, ,0.940000000000000,Bucharest,Bucureşti,Romania,44.432250000000003,26.106259999999999
80,210,HUF,Private,linear,no,no, ,0.810000000000000,Budapest,Budapest,Hungary,47.498350000000002,19.040450000000000
81,2,ARS, ,linear,yes,no, ,0.680000000000000,Buenos Aires,Buenos Aires F.D.,Argentina,-34.613149999999997,-58.377229999999997
82,476,BIF, ,increasing,yes,no, ,0.230000000000000,Bujumbura,Bujumbura Mairie,Burundi,-3.382200000000000,29.364400000000000
83,461,USD,Public,linear,no,Yes, ,1.570000000000000,Burlington,Vermont,United States,44.475879999999997,-73.212069999999997
84,126,TRY,Private,increasing,no,no, ,0.650000000000000,Bursa,Bursa,Turkey,40.195590000000003,29.060130000000001
85,176,KRW,Public,increasing,no,no,13mm,0.830000000000000,Busan,Busan,South Korea,35.102780000000003,129.040279999999996
86,21,EGP,Public,linear,no,no, ,0.070000000000000,Cairo,Cairo,Egypt,30.062629999999999,31.249669999999998
87,240,CAD,Public,linear,no,Yes,15mm,1.970000000000000,Calgary,Alberta,Canada,51.050109999999997,-114.085290000000001
88,388,COP, ,increasing,no,no, ,0.840000000000000,Cali,Valle del Cauca,Colombia,3.437220000000000,-76.522499999999994
89,71,ZAR,Public,increasing,no,no, ,2.270000000000000,Cape Town,Western Cape,South Africa,-33.925840000000001,18.423220000000001
90,116,GBP,Private,linear,no,no,20mm,2.030000000000000,Cardiff,Wales,United Kingdom,51.479999999999997,-3.180000000000000
91,44,MAD,Private,increasing,no,no, ,0.740000000000000,Casablanca,Casablanca-Settat,Morocco,33.588310000000000,-7.611380000000000
92,498,XCD, ,increasing,no,no, ,1.500000000000000,Castries,Castries,Saint Lucia,13.995699999999999,-61.006140000000002
93,268,INR,Public,increasing,no,no,15mm,0.040000000000000,Chandigarh,Chandigarh,India,30.736290000000000,76.788399999999996
94,301,CNY,Public,increasing,no,no, ,0.580000000000000,Changchun,Jilin,China,43.880000000000003,125.322779999999995
95,424,CNY,PPP,increasing,no,no, ,0.240000000000000,Changsha,Hunan,China,28.198740000000001,112.970870000000005
96,333,USD,public,linear,no,no,3/4"",1.260000000000000,"Charleston, SC",South Carolina,United States,32.776570000000000,-79.930920000000000
97,438,USD,private,decreasing,no,no,5/8"",3.940000000000000,"Charleston, WV",West Virginia,United States,38.349820000000001,-81.632620000000003
98,492,XCD, ,increasing,yes,no, ,1.080000000000000,Charlestown,Saint Paul Charlestown,Saint Kitts and Nevis,17.133330000000001,-62.616669999999999
99,334,USD,public,increasing,no,Yes,5/8"",1.010000000000000,Charlotte,North Carolina,United States,35.227089999999997,-80.843130000000002
100,526,MAD,Public,increasing,no,no, ,0.440000000000000,Chefchaouen,Tanger-Tetouan-Al Hoceima,Morocco,35.168779999999998,-5.263600000000000
101,302,CNY,Public,increasing,no,no, ,0.300000000000000,Chengdu,Sichuan,China,30.666670000000000,104.066670000000002
102,266,INR,Public,increasing,no,no,15mm,0.120000000000000,Chennai,Tamil Nadu,India,13.087840000000000,80.278469999999999
103,445,USD,public,increasing,no,no,5/8"",1.530000000000000,Cheyenne,Wyoming,United States,41.139980000000001,-104.820250000000001
104,185,JPY,Public,increasing,no,no, ,1.130000000000000,Chiba,Chiba,Japan,35.600000000000001,140.116669999999999
105,113,USD,Public,linear,no,no, ,1.050000000000000,Chicago,Illinois,United States,41.850029999999997,-87.650049999999993
106,172,MXN,Public,linear,yes,no, ,0.540000000000000,Chihuahua,Chihuahua,Mexico,28.635280000000002,-106.088890000000006
107,42,MDL,Public,linear,no,no, ,0.570000000000000,Chisinau,Chișinău Municipality,Moldova,47.005560000000003,28.857500000000002
108,15,CNY,Public,increasing,no,no, ,0.360000000000000,Chongqing,Chongqing,China,29.562780000000000,106.552779999999998
109,159,NZD,Private,linear,no,Yes, ,1.110000000000000,Christchurch,Canterbury,New Zealand,-43.533329999999999,172.633330000000001
110,171,MXN,Public,increasing,yes,no, ,0.850000000000000,Ciudad Juarez,Chihuahua,Mexico,31.720240000000000,-106.460840000000005
111,101,USD,Public,increasing,no,Yes,5/8"",1.640000000000000,Cleveland,Ohio,United States,41.499499999999998,-81.695409999999995
112,469,INR,Public,increasing,yes,no,15mm,0.100000000000000,Coimbatore,Tamil Nadu,India,11.005549999999999,76.966120000000004
113,73,LKR, ,increasing,no,no, ,0.080000000000000,Colombo,Western,Sri Lanka,6.931940000000000,79.847780000000000
114,579,USD,Public,increasing,no,no,5/8"",0.990000000000000,Columbia,South Carolina,United States,34.000709999999998,-81.034809999999993
115,103,USD,Public,increasing,no,Yes,5/8"",1.600000000000000,Columbus,Ohio,United States,39.961179999999999,-82.998790000000000
116,235,DKK, ,linear,no,no,2.5m3 per year (meter capacity),3.000000000000000,Copenhagen,Capital Region,Denmark,55.675939999999997,12.565530000000001
117,564,EUR,Private,increasing,no,no, ,1.450000000000000,Córdoba,Andalusia,Spain,37.891550000000002,-4.772750000000000
118,207,EUR, ,n/a,no,no, ,0.000000000000000,Cork,Munster,Ireland,51.897970000000001,-8.470610000000001
119,355,XOF,Public,increasing,yes,no,15mm,0.780000000000000,Cotonou,Littoral,Benin,6.365360000000000,2.418330000000000
120,534,ANG,Private,increasing,yes,no, ,5.880000000000000,Curaçao, ,Curaçao,12.108400000000000,-68.933539999999994
121,286,BRL,PPP,increasing,no,no, ,1.350000000000000,Curitiba,Paraná,Brazil,-25.427779999999998,-49.273060000000001
122,179,KRW,Public,linear,no,no,13mm,0.660000000000000,Daegu,Daegu,South Korea,35.870280000000001,128.591109999999986
123,181,KRW,Public,increasing,no,no,15mm,0.590000000000000,Daejeon,Daejeon,South Korea,36.321390000000001,127.419719999999998
124,287,XOF, ,increasing,no,no,15mm,0.630000000000000,Dakar,Dakar,Senegal,14.693700000000000,-17.444060000000000
125,303,CNY,Public,increasing,no,no, ,0.330000000000000,Dalian,Liaoning,China,38.912219999999998,121.602220000000003
126,106,USD,Public,increasing,no,no,5/8"",0.850000000000000,Dallas,Texas,United States,32.783059999999999,-96.806669999999997
127,74,SYP,Public,increasing,yes,no, ,0.980000000000000,Damascus,Dimashq,Syria,33.510199999999998,36.291280000000000
128,304,PHP,Public,increasing,yes,no,3/8"",0.200000000000000,Davao,Davao,Philippines,7.073060000000000,125.612780000000001
129,211,HUF,Public,linear,no,no,13-20mm,1.010000000000000,Debrecen,Hajdú-Bihar,Hungary,47.533329999999999,21.633330000000001
130,94,USD,Public,increasing,no,Yes, ,1.670000000000000,Denver,Colorado,United States,39.739150000000002,-104.984700000000004
131,335,USD,public,decreasing,no,Yes,5/8"",1.640000000000000,Des Moines,Iowa,United States,41.600540000000002,-93.609110000000001
132,93,USD,Public,linear,no,Yes,5/8"",1.390000000000000,Detroit,Michigan,United States,42.331429999999997,-83.045749999999998
133,258,BDT, ,linear,no,no, ,0.150000000000000,Dhaka,Dhaka,Bangladesh,23.710400000000000,90.407439999999994
134,478,USD, ,increasing,yes,no, ,0.520000000000000,Dili,Díli,Timor-Leste,-8.558610000000000,125.573610000000002
135,174,MXN,Public,increasing,yes,no, ,0.860000000000000,Distrito Federal (Mexico City),Mexico City,Mexico,19.428470000000001,-99.127660000000006
136,129,TRY,Public,linear,yes,no, ,0.490000000000000,Diyarbakir,Diyarbakır,Turkey,37.913629999999998,40.217210000000001
137,511,DJF, ,increasing,no,no,15mm,0.780000000000000,Djibouti,Djibouti,Djibouti,11.589010000000000,43.145029999999998
138,566,UAH,Public,linear,no,no, ,0.440000000000000,Dnipro,Dnipropetrovsk,Ukraine,48.459299999999999,35.038649999999997
139,55,QAR,Public,increasing,yes,no, ,1.510000000000000,Doha,Baladīyat ad Dawḩah,Qatar,25.285450000000001,51.530960000000000
140,261,CNY,Public,increasing,no,no, ,0.250000000000000,Dongguan,Guangdong,China,23.017969999999998,113.748660000000001
141,223,EUR, ,linear,no,Yes,Qn 2.5,3.360000000000000,Dortmund,North Rhine-Westphalia,Germany,51.514940000000003,7.466000000000000
142,357,XAF,Private,increasing,yes,no,15mm,0.690000000000000,Douala,Littoral,Cameroon,4.048270000000000,9.704280000000001
143,472,USD,Public,linear,no,no, ,1.970000000000000,Dover,Delaware,United States,39.158169999999998,-75.524370000000005
144,558,EUR,Private,linear,no,Yes, ,2.470000000000000,Dresden,Saxony,Germany,51.050890000000003,13.738320000000000
145,77,AED, ,increasing,yes,no, ,2.610000000000000,Dubai,Dubai,UAE,25.065700000000000,55.171280000000003
146,206,EUR, ,n/a,no,no, ,0.000000000000000,Dublin,Leinster,Ireland,53.333060000000003,-6.248890000000000
147,387,ZAR, ,increasing,no,no, ,1.870000000000000,Durban,KwaZulu-Natal,South Africa,-29.857900000000001,31.029199999999999
148,376,TJS,Public,linear,no,no, ,0.050000000000000,Dushanbe,Dushanbe,Tajikistan,38.535750000000000,68.779049999999998
149,220,EUR, ,linear,no,Yes, ,2.740000000000000,Düsseldorf,North Rhine-Westphalia,Germany,51.221719999999998,6.776160000000000
150,241,CAD,Public,increasing,no,Yes,5/8"",1.930000000000000,Edmonton,Alberta,Canada,53.550139999999999,-113.468710000000002
151,109,USD,Public,increasing,no,Yes,<1"",1.430000000000000,El Paso,Texas,United States,31.758720000000000,-106.486930000000001
152,563,TRY,Public,linear,no,no, ,0.380000000000000,Eskisehir,Eskişehir,Turkey,39.776670000000003,30.520560000000000
153,233,EUR, ,linear,no,Yes, ,1.960000000000000,Espoo,Uusimaa,Finland,60.205199999999998,24.652200000000001
154,525,MAD,Public,increasing,no,no, ,0.600000000000000,Essaouira,Marrakesh-Safi,Morocco,31.512499999999999,-9.770000000000000
155,222,EUR, ,linear,no,Yes,Qn 2.5,3.580000000000000,Essen,North Rhine-Westphalia,Germany,51.456569999999999,7.012280000000000
156,447,PKR,Public,increasing,no,no, ,0.060000000000000,Faisalabad,Punjab,Pakistan,31.415540000000000,73.089690000000004
157,336,USD,public,decreasing,no,Yes,5/8"",1.160000000000000,Fargo,North Dakota,United States,46.877189999999999,-96.789800000000000
158,267,INR,Public,increasing,no,no,20mm,0.050000000000000,Faridabad,Haryana,India,28.411239999999999,77.313159999999996
159,98,USD,Public,increasing,no,no,5/8"",1.560000000000000,Fort Worth,Texas,United States,32.725409999999997,-97.320849999999993
160,416,CNY,Private,increasing,no,no, ,0.280000000000000,Foshan - Chancheng,Guangdong,China,23.026769999999999,113.131479999999996
161,417,CNY,Private,increasing,no,no, ,0.220000000000000,Foshan - Gaoming,Guangdong,China,23.026769999999999,113.131479999999996
162,418,CNY,Private,increasing,no,no, ,0.270000000000000,Foshan - Nanhai,Guangdong,China,23.026769999999999,113.131479999999996
163,419,CNY,Private,increasing,no,no, ,0.250000000000000,Foshan - Sanshui,Guangdong,China,23.026769999999999,113.131479999999996
164,420,CNY,Private,increasing,no,no, ,0.270000000000000,Foshan - Shunde,Guangdong,China,23.026769999999999,113.131479999999996
165,215,EUR, ,linear,no,Yes, ,2.420000000000000,Frankfurt,Hesse,Germany,50.115519999999997,8.684170000000000
166,573,USD,Public,linear,no,no,3/4"",1.510000000000000,Fresno,California,United States,36.747729999999997,-119.772369999999995
167,186,JPY,Public,increasing,no,no, ,1.200000000000000,Fukuoka,Fukuoka,Japan,33.600000000000001,130.416670000000011
168,567,CNY,Public,increasing,no,no, ,0.300000000000000,Fuzhou,Fujian,China,26.061389999999999,119.306110000000004
169,8,BWP,Public,increasing,no,no, ,1.070000000000000,Gaborone,Gaborone,Botswana,-24.654509999999998,25.908590000000000
170,128,TRY,Public,increasing,no,no, ,0.820000000000000,Gaziantep,Gaziantep,Turkey,37.059440000000002,37.382500000000000
171,151,PLN,Private,linear,no,no, ,1.220000000000000,Gdansk,Pomerania,Poland,54.352049999999998,18.646370000000001
172,134,CHF, ,decreasing,no,no, ,2.650000000000000,Geneva,Geneva,Switzerland,46.202219999999997,6.145690000000000
173,203,EUR, ,increasing,no,no, ,1.510000000000000,Genova,Liguria,Italy,44.404780000000002,8.944390000000000
174,246,EUR, ,increasing,no,no, ,2.970000000000000,Gent,Flanders,Belgium,51.049999999999997,3.716670000000000
175,381,MYR, ,increasing,no,no, ,0.050000000000000,George Town (Penang),Penang,Malaysia,5.411230000000000,100.335430000000002
176,433,KYD,Public,increasing,no,no,20mm,4.220000000000000,"George Town, Grand Cayman",Grand Cayman,Cayman Islands (UK),19.286600000000000,-81.374359999999996
177,385,GYD,Public,linear,no,no, ,0.450000000000000,"Georgetown, Guyana",Demerara-Mahaica,Guyana,6.804480000000000,-58.155270000000002
178,462,USD,Public,Increasing,no,Yes,5/8"",1.500000000000000,"Georgetown, TX",Texas,United States,30.632690000000000,-97.677229999999994
179,457,GBP,Private,increasing,yes,no, ,6.690000000000000,Gibraltar, ,United Kingdom,36.144739999999999,-5.352570000000000
180,115,GBP,Public,decreasing,no,Yes,20mm,2.470000000000000,Glasgow,Scotland,United Kingdom,55.865150000000000,-4.257630000000000
181,136,SEK, ,linear,no,Yes,Småhus QN 2.5,1.580000000000000,Gothenburg,Västra Götaland,Sweden,57.707160000000002,11.966790000000000
182,249,EUR, ,linear,no,no,<50DN,2.910000000000000,Graz,Styria,Austria,47.066670000000002,15.449999999999999
183,168,MXN,Public,increasing,no,no, ,0.690000000000000,Guadalajara,Jalisco,Mexico,20.666820000000001,-103.391819999999996
184,17,CNY,Public,increasing,no,no, ,0.290000000000000,Guangzhou,Guangdong,China,23.116669999999999,113.250000000000000
185,431,GTQ,Public,increasing,no,no, ,0.310000000000000,Guatemala City,Guatemala,Guatemala,14.640720000000000,-90.513270000000006
186,20,USD, ,increasing,no,no,1/2"",0.410000000000000,Guayaquil,Guayas,Ecuador,-2.196160000000000,-79.886210000000005
187,450,PKR,Public,fixed,no,no, ,0.040000000000000,Gujranwala,Punjab,Pakistan,32.155670000000001,74.187049999999999
188,305,INR,Public,fixed,no,no,15mm,0.140000000000000,Gwalior,Madhya Pradesh,India,26.229830000000000,78.173370000000006
189,178,KRW,Public,increasing,no,no,13mm,0.650000000000000,Gwangju,Gwangju,South Korea,35.154719999999998,126.915559999999999
190,503,ILS,Public,increasing,yes,no, ,2.080000000000000,Haifa,Haifa,Israel,32.818410000000000,34.988500000000002
191,568,CNY,PPP,increasing,no,no, ,0.280000000000000,Haikou,Hainan,China,20.045829999999999,110.341669999999993
192,218,EUR, ,linear,no,Yes,1.5m3/hr (flow rate),2.350000000000000,Hamburg,Hamburg,Germany,53.575319999999998,10.015340000000000
193,584,CAD,Private,linear,no,no,15mm,1.720000000000000,Hamilton,Hamilton city,Bermuda (UK),32.294899999999998,-64.783029999999997
194,440,USD,Public,linear,yes,no,1/2"",6.060000000000000,Hamilton,Hamilton city,Bermuda (UK),32.294899999999998,-64.783029999999997
195,16,CNY,Public,increasing,no,no, ,0.280000000000000,Hangzhou,Zhejiang,China,30.293650000000000,120.161420000000007
196,85,VND, ,increasing,no,no, ,0.290000000000000,Hanoi,Hanoi,Vietnam,21.024500000000000,105.841170000000005
197,559,EUR,Private,increasing,no,Yes, ,2.500000000000000,Hanover,Lower Saxony,Germany,52.370519999999999,9.733219999999999
198,383,ZWL,Public,increasing,no,no, ,0.270000000000000,Harare,Harare,Zimbabwe,-17.827719999999999,31.053370000000001
199,306,CNY,Public,increasing,no,no, ,0.370000000000000,Harbin,Heilongjiang,China,45.750000000000000,126.650000000000006
200,529,SLS, ,linear,yes,no, ,1.730000000000000,Hargeisa,Woqooyi Galbeed,Somaliland,9.563056000000000,44.067500000000003
201,459,USD,public,linear,no,no, ,2.230000000000000,Hartford,Connecticut,United States,41.763710000000003,-72.685090000000002
202,19,CUP,Public,increasing,no,no, ,0.010000000000000,Havana,Havana,Cuba,23.133019999999998,-82.383039999999994
203,569,CNY,Public,increasing,no,no, ,0.300000000000000,Hefei,Anhui,China,31.863890000000001,117.280829999999995
204,234,EUR, ,linear,no,Yes, ,1.960000000000000,Helsinki,Uusimaa,Finland,60.169519999999999,24.935449999999999
205,530,AFN, ,linear,yes,no,1/2"",0.400000000000000,Herat,Herat,Afghanistan,34.348170000000003,62.199669999999998
206,194,JPY,Public,increasing,no,no, ,0.890000000000000,Hiroshima,Hiroshima,Japan,34.399999999999999,132.449999999999989
207,84,VND, ,increasing,no,no, ,0.250000000000000,Ho Chi Minh City,Ho Chi Minh,Vietnam,10.823020000000000,106.629649999999998
208,12,CNY,Public,increasing,no,no, ,0.580000000000000,Hong Kong,Central and Western,Hong Kong,22.278320000000001,114.174689999999998
209,496,SBD, ,increasing,no,no, ,0.780000000000000,Honiara,Guadalcanal,Solomon Islands,-9.433330000000000,159.949999999999989
210,275,USD,Public,increasing,no,no, ,1.780000000000000,Honolulu,Hawaii,United States,21.306940000000001,-157.858329999999995
211,105,USD,Public,increasing,no,no,5/8"",1.690000000000000,Houston,Texas,United States,29.763280000000002,-95.363270000000000
212,265,INR,Public,increasing,no,no,1/2"",0.160000000000000,Hyderabad,Telangana,India,17.384049999999998,78.456360000000004
213,180,KRW,Public,increasing,no,no,15mm,0.600000000000000,Incheon,Incheon,South Korea,37.456460000000000,126.705150000000003
214,97,USD,Public,linear,no,no,5/8"",1.880000000000000,Indianapolis,Indiana,United States,39.768380000000001,-86.158040000000000
215,411,MYR,Public,increasing,no,no, ,0.100000000000000,Ipoh,Perak,Malaysia,4.584100000000000,101.082899999999995
216,369,PKR,Public,increasing,yes,no, ,0.010000000000000,Islamabad,Islamabad,Pakistan,33.721480000000000,73.043289999999999
217,123,TRY,Public,increasing,no,no, ,0.740000000000000,Istanbul,Istanbul,Turkey,41.013840000000002,28.949660000000002
218,546,RUB,Public,linear,no,no, ,0.370000000000000,Izhevsk,Udmurtiya Republic,Russia,56.849760000000003,53.204479999999997
219,124,TRY,Public,increasing,no,no, ,0.540000000000000,Izmir,İzmir,Turkey,38.412730000000003,27.138380000000002
220,337,USD,public,linear,no,no,5/8"",1.630000000000000,Jackson,Mississippi,United States,32.298760000000001,-90.184809999999999
221,99,USD,Private,increasing,no,Yes,3/8"",1.180000000000000,Jacksonville,Florida,United States,30.332180000000001,-81.655649999999994
222,468,INR,Public,increasing,no,no,15mm,0.060000000000000,Jaipur,Rajasthan,India,26.919619999999998,75.787809999999993
223,30,IDR, ,increasing,yes,no,1/2"",0.430000000000000,Jakarta,Jakarta,Indonesia,-6.214620000000000,106.845129999999997
224,68,SAR,Public,increasing,No,no, ,0.120000000000000,Jeddah,Makkah,Saudi Arabia,21.542380000000001,39.197969999999998
225,33,ILS, ,increasing,no,no, ,1.210000000000000,Jerusalem,Jerusalem,Israel,31.769040000000000,35.216329999999999
226,307,CNY,Public,increasing,no,no, ,0.500000000000000,Jinan,Shandong,China,36.668329999999997,116.997219999999999
227,308,INR,Public,increasing,no,no,15mm,0.060000000000000,Jodhpur,Rajasthan,India,26.268409999999999,73.005939999999995
228,72,ZAR,Public,increasing,no,no, ,1.050000000000000,Johannesburg,Gauteng,South Africa,-26.202269999999999,28.043630000000000
229,309,MYR,Private,increasing,no,no, ,0.190000000000000,Johor Baru,Johor,Malaysia,1.465500000000000,103.757800000000003
230,439,USD,public,linear,no,no, ,1.650000000000000,Juneau,Alaska,United States,58.301940000000002,-134.419720000000012
231,505,AFN, ,linear,yes,no,1/2"",0.400000000000000,Kabul,Kabul,Afghanistan,34.528129999999997,69.172330000000002
232,289,UGX, ,linear,no,no,3/4"",0.940000000000000,Kampala,Central Region,Uganda,0.316280000000000,32.582189999999997
233,412,MYR,Public,increasing,no,no, ,0.100000000000000,Kangar,Perlis,Malaysia,6.441400000000000,100.198620000000005
234,338,USD,public,increasing then decreasing,no,Yes,5/8"",2.650000000000000,Kansas City,Missouri,United States,39.099730000000001,-94.578569999999999
235,49,PKR,Public,fixed,no,no, ,0.150000000000000,Karachi,Sindh,Pakistan,24.860800000000001,67.010400000000004
236,46,NPR, ,linear,no,no,1/2"",0.160000000000000,Kathmandu,Central Region,Nepal,27.701689999999999,85.320599999999999
237,195,JPY,Public,increasing,no,no, ,0.940000000000000,Kawasaki,Kanagawa,Japan,35.520560000000003,139.717219999999998
238,543,RUB,Public,linear,no,no, ,0.600000000000000,Kazan,Tatarstan Republic,Russia,55.788739999999997,49.122140000000002
239,413,MYR,Public,increasing,no,no, ,0.110000000000000,Kelantan,Kelantan,Malaysia,6.133280000000000,102.238600000000005
240,550,RUB,Public,linear,no,no, ,0.450000000000000,Kemerovo,Kemerovo Oblast,Russia,55.333329999999997,86.083330000000004
241,79,UAH,Public,linear,no,no, ,0.460000000000000,Kharkiv,Kharkiv,Ukraine,49.980809999999998,36.252719999999997
242,290,MAD,Public,increasing,no,no, ,0.680000000000000,Khouribga,Béni Mellal-Khénifra,Morocco,32.881079999999997,-6.906300000000000
243,310,BDT, ,linear,yes,no,15mm,0.120000000000000,Khulna,Khulna,Bangladesh,22.809790000000000,89.564390000000003
244,271,RWF,Public,increasing,yes,no, ,0.780000000000000,Kigali,Kigali,Rwanda,-1.949950000000000,30.058850000000000
245,373,JMD,Public,increasing,no,no,15mm,1.260000000000000,Kingston,Kingston,Jamaica,17.997019999999999,-76.793580000000006
246,499,XCD, ,increasing,no,no, ,1.290000000000000,Kingstown,Saint George,Saint Vincent and the Grenadines,13.155270000000000,-61.227420000000002
247,311,INR,Public,increasing,no,no,15mm,0.150000000000000,Kohlapur,Maharashtra,India,16.695630000000001,74.231669999999994
248,27,INR,Public,linear,yes,no,20mm,0.100000000000000,Kolkata,West Bengal,India,22.562629999999999,88.363039999999998
249,219,EUR, ,linear,no,Yes, ,2.340000000000000,Köln,North Rhine-Westphalia,Germany,50.933329999999998,6.950000000000000
250,130,TRY,Public,linear,no,no, ,0.570000000000000,Konya,Konya,Turkey,37.871350000000000,32.484639999999999
251,145,EUR,Public,linear,no,no, ,2.170000000000000,Kosice,Košický,Slovakia,48.713949999999997,21.258080000000000
252,155,PLN,Public,linear,no,no, ,1.230000000000000,Krakow,Lesser Poland,Poland,50.061430000000001,19.936579999999999
253,544,RUB,Public,linear,no,no, ,0.600000000000000,Krasnodar,Krasnodarskiy,Russia,45.044840000000001,38.976030000000002
254,63,RUB,Public,linear,no,no, ,0.390000000000000,Krasnoyarsk,Krasnoyarskiy,Russia,56.018389999999997,92.867170000000002
255,561,UAH,Public,linear,no,no, ,0.330000000000000,Kryvyi Rih,Dnipropetrovsk,Ukraine,47.909660000000002,33.380440000000000
256,270,MYR, ,increasing,no,no, ,0.140000000000000,Kuala Lumpur,Kuala Lumpur,Malaysia,3.141200000000000,101.686530000000005
257,410,MYR,Public,increasing,no,no, ,0.100000000000000,Kuala Terengganu,Terengganu,Malaysia,5.330200000000000,103.140799999999999
258,521,MYR,Public,increasing,no,no, ,0.090000000000000,Kuantan,Pahang,Malaysia,3.807700000000000,103.325999999999993
259,523,MYR,Public,increasing,no,no, ,0.120000000000000,Kuching,Sarawak,Malaysia,1.550000000000000,110.333330000000004
260,183,JPY,Public,increasing,no,no, ,1.240000000000000,Kumamoto,Kumamoto,Japan,32.805889999999998,130.691810000000004
261,312,CNY,PPP,increasing,no,no, ,0.470000000000000,Kunming,Yunnan,China,25.038889999999999,102.718329999999995
262,392,KWD,Public,linear,yes,no, ,0.580000000000000,Kuwait City,Al Asimah,Kuwait,29.369720000000001,47.978330000000000
263,78,UAH,Public,linear,no,no, ,0.410000000000000,Kyiv,City of Kyiv,Ukraine,50.454659999999997,30.523800000000001
264,190,JPY,Public,increasing,no,no, ,1.240000000000000,Kyoto,Kyoto,Japan,35.021070000000002,135.753850000000000
265,356,BOB,Public,increasing,yes,no, ,0.490000000000000,La Paz,La Paz,Bolivia,-16.500000000000000,-68.150000000000006
266,47,NGN,Public,linear,yes,no, ,0.650000000000000,Lagos,Lagos,Nigeria,6.454070000000000,3.394670000000000
267,368,PKR,Public,increasing,no,no, ,0.020000000000000,Lahore,Punjab,Pakistan,31.558000000000000,74.350710000000007
268,313,CNY,PPP,increasing,no,no, ,0.280000000000000,Lanzhou,Gansu,China,36.057009999999998,103.839870000000005
269,273,EUR,PPP,increasing,no,no, ,2.350000000000000,Las Palmas,Canary Islands,Spain,28.099730000000001,-15.413430000000000
270,96,USD,Public,increasing,no,no,5/8"",2.070000000000000,Las Vegas,Nevada,United States,36.174970000000002,-115.137219999999999
271,397,GBP,Private,linear,no,Yes, ,1.920000000000000,Leeds,England,United Kingdom,53.796480000000003,-1.547850000000000
272,557,EUR,Private,linear,no,Yes, ,2.910000000000000,Leipzig,Saxony,Germany,51.339619999999996,12.371290000000000
273,164,MXN,Public,increasing,yes,no, ,1.240000000000000,León,Guanajuato,Mexico,21.129079999999998,-101.673739999999995
274,405,USD,Private,linear,no,no, ,2.430000000000000,Lexington,Kentucky,United States,37.988689999999998,-84.477720000000005
275,480,XAF, ,linear,yes,no,15mm,1.030000000000000,Libreville,Estuaire,Gabon,0.392410000000000,9.453560000000000
276,384,MWK,Public,increasing,yes,no, ,0.700000000000000,Lilongwe,Central Region,Malawi,-13.966920000000000,33.787250000000000
277,52,PEN, ,increasing,no,no, ,0.640000000000000,Lima,Lima,Peru,-12.043180000000000,-77.028239999999997
278,451,EUR,Public,increasing,no,Yes, ,1.690000000000000,Limassol,Limassol,Cyprus,34.684060000000002,33.037939999999999
279,577,USD,Public,increasing,no,no,5/8"",0.960000000000000,Lincoln,Nebraska,United States,40.799999999999997,-96.666960000000003
280,250,EUR,Private,linear,no,no, ,1.620000000000000,Linz,Upper Austria,Austria,48.306390000000000,14.286110000000001
281,149,EUR,Public,increasing,no,no,15mm,1.440000000000000,Lisbon,Lisbon,Portugal,38.716670000000001,-9.133330000000001
282,441,USD,Public,increasing,no,no,5/8"",0.920000000000000,Little Rock,Arkansas,United States,34.746479999999998,-92.289590000000004
283,291,EUR,Public,increasing,no,Yes,DN<=20,0.950000000000000,Ljubljana,Ljubljana,Slovenia,46.051079999999999,14.505129999999999
284,152,PLN,Public,linear,no,no, ,1.520000000000000,Lodz,Łódź Voivodeship,Poland,51.770580000000002,19.473949999999999
285,394,XOF,Public,increasing,yes,no, ,0.610000000000000,Lomé,Maritime,Togo,6.128740000000000,1.221540000000000
286,121,GBP,Private,linear,no,Yes,20mm,1.860000000000000,London,England,United Kingdom,51.508530000000000,-0.125740000000000
287,587,USD,Public,increasing,no,no,5/8"",1.910000000000000,Long Beach,California,United States,33.766959999999997,-118.189229999999995
288,104,USD,Public,increasing,no,no, ,2.310000000000000,Los Angeles,California,United States,34.052230000000002,-118.243679999999998
289,102,USD,Public,increasing,no,Yes,5/8"",1.540000000000000,Louisville,Kentucky,United States,38.254240000000003,-85.759410000000003
290,353,AOA,Public,increasing,yes,no, ,0.280000000000000,Luanda,Luanda,Angola,-8.836819999999999,13.234320000000000
291,276,ZMW,Public,increasing,no,no, ,0.660000000000000,Lusaka,Lusaka,Zambia,-15.406689999999999,28.287130000000001
292,175,EUR, ,linear,no,no,3/4"",2.860000000000000,Luxembourg,Luxembourg,Luxembourg,49.611669999999997,6.130000000000000
293,80,UAH,Public,linear,no,no, ,0.360000000000000,Lviv,Lviv,Ukraine,49.838259999999998,24.023240000000001
294,228,EUR,Private,linear,no,no, ,1.900000000000000,Lyon,Auvergne-Rhône-Alpes,France,45.748460000000001,4.846710000000000
295,542,MVR, ,increasing,yes,no, ,4.740000000000000,Maafushi,Kaafu Atoll,Maldives,3.940278000000000,73.488889000000000
296,141,EUR,Public,increasing,no,no,15mm,1.140000000000000,Madrid,Madrid,Spain,40.416499999999999,-3.702560000000000
297,488,USD, ,linear,no,no, ,1.590000000000000,Majuro,Majuro Atoll,Marshall Islands,7.089710000000000,171.380269999999996
298,509,XAF, ,fixed,yes,no, ,1.950000000000000,Malabo,Bioko Norte,Equatorial Guinea,3.755780000000000,8.781660000000000
299,519,MYR,Public,increasing,no,no, ,0.140000000000000,Malacca City,Melaka,Malaysia,2.196000000000000,102.240499999999997
300,144,EUR,Public,increasing,no,no,15mm,1.020000000000000,Malaga,Andalusia,Spain,36.720160000000000,-4.420340000000000
301,487,MVR,Public,increasing,yes,no, ,3.910000000000000,Male,Kaafu Atoll,Maldives,4.175210000000000,73.509159999999994
302,135,SEK, ,linear,no,Yes, ,1.110000000000000,Malmö,Skåne,Sweden,55.605870000000003,13.000730000000001
303,513,NIO, ,linear,yes,no, ,0.310000000000000,Managua,Managua,Nicaragua,12.132820000000001,-86.250399999999999
304,6,BHD, ,increasing,yes,no, ,0.240000000000000,Manama (Bahraini citizens),Manama,Bahrain,26.227869999999999,50.585650000000001
305,465,BHD, ,linear,yes,no, ,2.170000000000000,Manama (Expats),Manama,Bahrain,26.227869999999999,50.585650000000001
306,117,GBP,Private,linear,no,Yes, ,2.650000000000000,Manchester,England,United Kingdom,53.480950000000000,-2.237430000000000
307,442,USD,Public,decreasing,no,no,5/8"",1.490000000000000,"Manchester, NH",New Hampshire,United States,42.995640000000002,-71.454790000000003
308,53,PHP, ,increasing,yes,no,1/2"",0.410000000000000,Manila (Maynilad),Metro Manila,Philippines,14.604200000000001,120.982200000000006
309,54,PHP, ,increasing,yes,no, ,0.290000000000000,Manila Water Company,Metro Manila,Philippines,14.604200000000001,120.982200000000006
310,292,MZN,Private,increasing,yes,no, ,0.530000000000000,Maputo,Maputo City,Mozambique,-25.965530000000001,32.583219999999997
311,227,EUR,Private,increasing,no,no, ,2.370000000000000,Marseille,Provence-Alpes-Côte d'Azur,France,43.296950000000002,5.381070000000000
312,314,LSL,Public,increasing,no,no, ,0.880000000000000,Maseru,Maseru,Lesotho,-29.316669999999998,27.483329999999999
313,484,IRR,Public,linear,no,no, ,0.090000000000000,Mashhad,Razavi Khorasan,Iran,36.315590000000000,59.567959999999999
314,277,SZL,Public,increasing,no,no, ,3.810000000000000,Mbabane,Hhohho,Eswatini,-26.316669999999998,31.133330000000001
315,358,COP,Public,increasing,no,no, ,0.820000000000000,Medellín,Antioquia,Colombia,6.251840000000000,-75.563590000000005
316,254,AUD,Public,increasing,no,Yes, ,2.790000000000000,Melbourne (City West),Victoria,Australia,-37.814000000000000,144.963320000000010
317,114,USD,Public,linear,no,Yes,5/8"",0.710000000000000,Memphis,Tennessee,United States,35.149529999999999,-90.048980000000000
318,585,USD,Public,increasing,no,no,3/4"",2.080000000000000,Mesa,Arizona,United States,33.422269999999997,-111.822640000000007
319,524,EUR, ,linear,no,Yes, ,2.810000000000000,Mettmann,North Rhine-Westphalia,Germany,51.250399999999999,6.975360000000000
320,112,USD,public,increasing,no,no,5/8"",0.690000000000000,Miami,Florida,United States,25.774270000000001,-80.193659999999994
321,204,EUR, ,increasing,no,no, ,0.160000000000000,Milan,Lombardy,Italy,45.464269999999999,9.189510000000000
322,339,USD,public,linear,no,Yes,5/8"",1.340000000000000,Milwaukee,Wisconsin,United States,43.038899999999998,-87.906469999999999
323,340,USD,public,linear,no,Yes,5/8"",1.740000000000000,Minneapolis,Minnesota,United States,44.979970000000002,-93.263840000000002
324,7,BYN,Public,increasing,no,no, ,0.410000000000000,Minsk,Minsk City,Belarus,53.899999999999999,27.566669999999998
325,209,HUF,Public,linear,no,no, ,1.110000000000000,Miskolc,Borsod-Abaúj-Zemplén,Hungary,48.100000000000001,20.783329999999999
326,400,KES,Public,increasing,no,no, ,0.830000000000000,Mombasa,Mombasa,Kenya,-4.054660000000000,39.663589999999999
327,396,EUR,Public,linear,yes,no, ,5.610000000000000,Monaco, ,Monaco,43.733330000000002,7.416670000000000
328,375,USD,Public,linear,no,no, ,0.710000000000000,Monrovia,Montserrado,Liberia,6.300540000000000,-10.796900000000001
329,274,MXN,Public,increasing,yes,no, ,0.730000000000000,Monterrey,Nuevo León,Mexico,25.675070000000002,-100.318470000000005
330,364,UYU,Public,increasing,no,no,12.5-13mm,1.020000000000000,Montevideo,Montevideo,Uruguay,-34.903280000000002,-56.188160000000003
331,583,CAD,Public,fixed,yes,no, ,2.310000000000000,Montreal,Québec,Canada,45.508839999999999,-73.587810000000005
332,166,MXN,Public,increasing,no,no, ,0.510000000000000,Morelia,Michoacán,Mexico,19.700780000000002,-101.184430000000006
333,58,RUB,Public,linear,no,no, ,0.630000000000000,Moscow,Moscow,Russia,55.752220000000001,37.615560000000002
334,449,PKR,Public,fixed,no,no, ,0.040000000000000,Multan,Punjab,Pakistan,30.196790000000000,71.478240000000000
335,29,INR,Public,linear,no,no,15mm,0.120000000000000,Mumbai,Maharashtra,India,19.072830000000000,72.882610000000000
336,221,EUR, ,linear,no,Yes, ,2.530000000000000,Munich,Bavaria,Germany,48.137430000000002,11.575490000000000
337,555,EUR,Private,increasing,no,no, ,2.050000000000000,Murcia,Murcia,Spain,37.987040000000000,-1.130040000000000
338,48,OMR,Public,increasing,no,no, ,1.140000000000000,Muscat,Muscat,Oman,23.584129999999998,58.407780000000002
339,562,UAH,Public,linear,no,no, ,0.400000000000000,Mykolaiv,Lviv,Ukraine,49.523719999999997,23.985220000000002
340,293,MAD,Public,increasing,no,no, ,0.650000000000000,Nador,Oriental,Morocco,35.168129999999998,-2.933520000000000
341,196,JPY,Public,increasing,no,no, ,0.960000000000000,Nagoya,Aichi,Japan,35.181469999999997,136.906409999999994
342,315,INR,Public,increasing,yes,no,15mm,0.110000000000000,Nagpur,Maharashtra,India,21.146310000000000,79.084909999999994
343,37,KES,Public,increasing,no,no,1/2"",0.480000000000000,Nairobi,Nairobi Area,Kenya,-1.283330000000000,36.816670000000002
344,570,CNY,Public,increasing,no,no, ,0.290000000000000,Nanchang,Jiangxi,China,28.683959999999999,115.853059999999999
345,316,CNY,Public,increasing,no,no, ,0.230000000000000,Nanjing,Jiangsu,China,32.061669999999999,118.777780000000007
346,428,CNY,Private,increasing,no,no, ,0.220000000000000,Nanning,Guangxi,China,22.816669999999998,108.316670000000002
347,230,EUR,Public,linear,no,no, ,1.930000000000000,Nantes,Pays de la Loire,France,47.217250000000000,-1.553360000000000
348,201,EUR, ,increasing,no,no, ,1.060000000000000,Naples,Campania,Italy,40.852159999999998,14.268110000000000
349,317,INR,Public,linear,yes,no,15mm,0.070000000000000,Nashik,Maharashtra,India,19.997270000000000,73.790959999999998
350,341,USD,public,linear,no,Yes,5/8"",0.790000000000000,Nashville,Tennessee,United States,36.165889999999997,-86.784440000000004
351,257,BSD, ,increasing,no,no,1/2"",3.740000000000000,Nassau,New Providence,Bahamas,25.058229999999998,-77.343059999999994
352,504,XAF, ,increasing then decreasing,yes,no, ,0.180000000000000,Ndjamena,Chari-Baguirmi,Chad,12.106719999999999,15.044400000000000
353,28,INR,Public,increasing,no,no,15mm,0.220000000000000,New Delhi,Delhi,India,28.635760000000001,77.224450000000004
354,342,USD,public,increasing then decreasing,no,no,5/8"",2.500000000000000,New Orleans,Louisiana,United States,29.954650000000001,-90.075069999999997
355,95,USD,Public,linear,no,no, ,1.410000000000000,New York City,New York,United States,40.714269999999999,-74.005970000000005
356,444,USD,public,increasing,no,no, ,1.990000000000000,"Newark, DE",Delaware,United States,39.683720000000001,-75.749660000000006
357,343,USD,Public,decreasing,no,no, ,1.220000000000000,"Newark, NJ",New Jersey,United States,40.735660000000003,-74.172370000000001
358,119,GBP,Private,linear,no,Yes,24mm,1.930000000000000,Newcastle,England,United Kingdom,54.973280000000003,-1.613960000000000
359,294,XOF,Private,increasing,yes,no, ,0.380000000000000,Niamey,Niamey,Niger,13.513660000000000,2.109800000000000
360,229,EUR, ,increasing,no,no, ,1.960000000000000,Nice,Provence-Alpes-Côte d'Azur,France,43.703130000000002,7.266080000000000
361,395,EUR,Public,increasing,no,no, ,1.930000000000000,Nicosia,Nicosia,Cyprus,35.175310000000003,33.364199999999997
362,427,CNY,Public,increasing,no,no, ,0.350000000000000,Ningbo,Zhejiang,China,29.878190000000000,121.549449999999993
363,552,RUB,Public,linear,no,no, ,0.360000000000000,Nizhny Novgorod,Nizhny Novgorod Oblast,Russia,56.328670000000002,44.002049999999997
364,458,GBP,Private,linear,no,Yes, ,2.240000000000000,Northampton,England,United Kingdom,52.250000000000000,-0.883330000000000
365,67,RUB,Public,linear,no,no, ,0.290000000000000,Novosibirsk,Novosibirsk Oblast,Russia,55.041499999999999,82.934600000000003
366,560,EUR,Private,linear,no,Yes, ,3.010000000000000,Nuremberg,Bavaria,Germany,49.454210000000003,11.077520000000000
367,404,DKK,Public,linear,yes,no, ,2.900000000000000,Nuuk,Sermersooq,Greenland,64.183470000000000,-51.721570000000000
368,588,USD,Public,increasing,no,no,5/8"",3.130000000000000,Oakland,California,United States,37.804369999999999,-122.270799999999994
369,81,UAH,Private,linear,no,no, ,0.450000000000000,Odessa,Odesa,Ukraine,46.477469999999997,30.732620000000001
370,344,USD,public,increasing,no,no, ,1.900000000000000,Oklahoma City,Oklahoma,United States,35.467559999999999,-97.516430000000000
371,111,USD,Public,increasing,no,no,5/8"",1.310000000000000,Omaha,Nebraska,United States,41.256259999999997,-95.940430000000006
372,64,RUB,Private,linear,no,no, ,0.270000000000000,Omsk,Omsk,Russia,54.992440000000002,73.368589999999998
373,279,AWG, ,increasing,yes,no, ,3.670000000000000,Oranjestad, ,Aruba,12.523980000000000,-70.027029999999996
374,549,RUB,Public,linear,no,no, ,0.440000000000000,Orenburg,Orenburg Oblast,Russia,51.772700000000000,55.098799999999997
375,197,JPY,Public,increasing,no,no, ,0.960000000000000,Osaka,Ōsaka,Japan,34.693739999999998,135.502180000000010
376,156,NOK, ,linear,no,no,13mm,3.020000000000000,Oslo,Oslo,Norway,59.912730000000003,10.746090000000001
377,239,CZK,Public,linear,no,no, ,1.730000000000000,Ostrava,Moravskoslezský,Czech Republic,49.834650000000003,18.282039999999999
378,242,CAD,Public,increasing,no,Yes, ,1.470000000000000,Ottawa,Ontario,Canada,45.411169999999998,-75.698120000000003
379,295,XOF, ,increasing,no,no, ,0.670000000000000,Ouagadougou,Centre,Burkina Faso,12.365660000000000,-1.533880000000000
380,553,EUR,Private,increasing,no,no, ,0.620000000000000,Oviedo,Asturias,Spain,43.360289999999999,-5.844760000000000
381,200,EUR, ,increasing,no,no, ,1.280000000000000,Palermo,Sicily,Italy,38.132050000000000,13.335610000000001
382,51,PAB, ,increasing,no,no, ,0.850000000000000,Panama City,Panamá,Panama,8.993600000000001,-79.519729999999996
383,500,SRD, ,increasing,yes,no, ,0.280000000000000,Paramribo,Paramaribo,Suriname,5.866380000000000,-55.166820000000001
384,232,EUR,Public,linear,no,no, ,2.150000000000000,Paris,Île-de-France,France,48.853409999999997,2.348800000000000
385,540,RUB, ,linear,no,no, ,0.520000000000000,Perm,Perm,Russia,58.010460000000002,56.250169999999997
386,256,AUD,Public,increasing,no,Yes, ,2.360000000000000,Perth,Western Australia,Australia,-31.952240000000000,115.861400000000003
387,91,USD,Public,decreasing,no,Yes,5/8"",1.960000000000000,Philadelphia,Pennsylvania,United States,39.952330000000003,-75.163790000000006
388,318,KHR,Public,increasing,no,no, ,0.150000000000000,Phnom Penh,Phnom Penh,Cambodia,11.562450000000000,104.916010000000000
389,110,USD,Public,linear,no,Yes,5/8"",1.320000000000000,Phoenix,Arizona,United States,33.448380000000000,-112.074039999999997
390,214,EUR, ,increasing,no,no, ,0.790000000000000,Piraeus,Attica,Greece,37.942030000000003,23.646190000000001
391,345,USD,public,linear,no,no,5/8"",4.150000000000000,Pittsburgh,Pennsylvania,United States,40.440620000000003,-79.995890000000003
392,430,EUR,Public,linear,no,no, ,0.490000000000000,Podgorica,Podgorica,Montenegro,42.441110000000002,19.263610000000000
393,489,MUR, ,increasing,yes,no,12 or 18 mm,0.210000000000000,Port Louis,Port Louis,Mauritius,-20.161940000000001,57.498890000000003
394,378,PGK,Public,increasing,no,no,15mm,0.450000000000000,Port Moresby,National Capital,Papua New Guinea,-9.477230000000000,147.150890000000004
395,514,TTD, ,increasing,no,no, ,0.260000000000000,Port of Spain,Port of Spain,Trinidad and Tobago,10.666679999999999,-61.518889999999999
396,463,USD,Private/Public,decreasing,no,Yes,5/8"",1.350000000000000,"Portland, ME",Maine,United States,43.661470000000001,-70.255330000000001
397,346,USD,public,linear,no,Yes,5/8"",2.910000000000000,"Portland, OR",Oregon,United States,45.523449999999997,-122.676209999999998
398,148,EUR,Public,increasing,no,no,15mm,1.300000000000000,Porto,Porto,Portugal,41.149610000000003,-8.610989999999999
399,502,VUV, ,increasing,yes,no,15mm,0.810000000000000,Port-Vila,Shefa,Vanuatu,-17.736480000000000,168.313659999999999
400,150,PLN,Private,linear,no,Yes, ,1.360000000000000,Poznan,Greater Poland,Poland,52.406920000000000,16.929929999999999
401,238,CZK,Private,linear,no,no, ,2.160000000000000,Prague,Praha,Czech Republic,50.088039999999999,14.420760000000000
402,477,CVE, ,increasing,no,no, ,4.310000000000000,Praia,Praia,Cabo Verde,14.931520000000001,-23.512540000000001
403,398,ZAR,Public,increasing,no,no, ,1.230000000000000,Pretoria,Gauteng,South Africa,-25.744859999999999,28.187830000000002
404,446,USD,Public,linear,no,no,5/8"",1.780000000000000,Providence,Rhode Island,United States,41.823990000000002,-71.412830000000000
405,167,MXN,Public,increasing,no,no, ,0.540000000000000,Puebla,Baja California,Mexico,32.566540000000003,-115.353399999999993
406,467,INR,Public,increasing,yes,no,15mm,0.090000000000000,Pune,Maharashtra,India,18.519570000000002,73.855350000000001
407,517,MYR,Public,increasing,no,no, ,0.140000000000000,Putrajaya,Putrajaya,Malaysia,2.935270000000000,101.691119999999998
408,319,CNY,Public,increasing,no,no, ,0.400000000000000,Qingdao,Shandong,China,36.064880000000002,120.380420000000001
409,422,CNY,Public,increasing,no,no, ,0.280000000000000,Quanzhou,Fujian,China,24.913889999999999,118.585830000000001
410,582,CAD,Public,fixed,yes,no, ,2.340000000000000,Quebec City,Québec,Canada,46.812280000000001,-71.214540000000000
411,389,USD, ,increasing,no,no, ,0.480000000000000,Quito,Pichincha,Ecuador,-0.229850000000000,-78.524950000000004
412,45,MAD,Private,linear,no,no, ,0.890000000000000,Rabat,Rabat-Salé-Kénitra,Morocco,34.013249999999999,-6.832550000000000
413,320,INR,Public,fixed,yes,no,12.5mm,0.070000000000000,Rajkot,Gujarat,India,22.291609999999999,70.793220000000005
414,576,USD,Public,increasing,no,Yes,5/8"",1.620000000000000,Raleigh,North Carolina,United States,35.772100000000002,-78.638610000000000
415,50,ILS, ,increasing,no,no, ,1.510000000000000,Ramallah,West Bank,Palestine,31.899640000000002,35.204219999999999
416,321,INR,Public,linear,yes,no, ,0.090000000000000,Ranchi,Jharkhand,India,23.343160000000001,85.309399999999997
417,448,PKR,Public,increasing,no,no, ,0.040000000000000,Rawalpindi,Punjab,Pakistan,33.597329999999999,73.047899999999998
418,322,BRL,PPP,increasing,no,no, ,1.120000000000000,Recife,Pernambuco,Brazil,-8.053890000000001,-34.881110000000000
419,208,ISK, ,linear,no,no,15mm,2.280000000000000,Reykjavik,Capital Region,Iceland,64.135480000000001,-21.895409999999998
420,86,USD,Public,increasing,no,Yes,5/8"",2.180000000000000,Richmond,Virginia,United States,37.553759999999997,-77.460260000000005
421,38,EUR,Public,linear,no,no, ,1.160000000000000,Riga,Riga,Latvia,56.945999999999998,24.105889999999999
422,259,BRL,PPP,increasing,no,no,1/2"",1.130000000000000,Rio de Janeiro,Rio de Janeiro,Brazil,-22.906420000000001,-43.182229999999997
423,69,SAR,Public,increasing,No,no, ,0.120000000000000,Riyadh,Ar Riyāḑ,Saudi Arabia,24.687729999999998,46.721850000000003
424,199,EUR, ,increasing,no,no, ,0.780000000000000,Rome,Latium,Italy,41.891930000000002,12.511329999999999
425,432,XCD,Public,linear,no,no, ,1.270000000000000,Roseau,Saint George,Dominica,15.301740000000001,-61.388080000000002
426,60,RUB,Private,linear,no,no, ,0.670000000000000,Rostov-on-Don,Rostov,Russia,47.231349999999999,39.723280000000003
427,161,EUR, ,decreasing,no,no, ,2.700000000000000,Rotterdam,South Holland,Netherlands,51.922499999999999,4.479170000000000
428,551,RUB,public,linear,no,no, ,0.520000000000000,Ryazan,Ryazan Oblast,Russia,54.626899999999999,39.691600000000001
429,586,USD,Public,linear,no,no,1"",2.900000000000000,Sacramento,California,United States,38.581569999999999,-121.494399999999999
430,452,GBP,Private,linear,no,no,25mm,3.690000000000000,Saint Helier,St Helier,United Kingdom,49.188040000000001,-2.104910000000000
431,575,USD,Public,linear,no,no,<1"",1.480000000000000,Saint Paul,Minnesota,United States,44.944409999999998,-93.093270000000004
432,454,GBP,Private,linear,no,no,15mm,1.650000000000000,Saint Peter Port,St Peter Port,United Kingdom,49.459809999999997,-2.535270000000000
433,184,JPY,Public,increasing,no,no, ,1.120000000000000,Sakai,Ōsaka,Japan,34.583329999999997,135.466669999999993
434,578,USD,Public,linear,no,Yes,<3/4"",1.580000000000000,Salem,Oregon,United States,44.942900000000002,-123.035100000000000
435,347,USD,public,increasing,no,Yes,5/8"",1.200000000000000,Salt Lake City,Utah,United States,40.760779999999997,-111.891050000000007
436,352,BRL,PPP,increasing,no,no, ,1.320000000000000,Salvador de Bahia,Bahia,Brazil,-12.971109999999999,-38.510829999999999
437,65,RUB,Public,linear,no,no, ,0.490000000000000,Samara,Samara Oblast,Russia,53.200069999999997,50.149999999999999
438,108,USD,Public,increasing,no,Yes,5/8"",1.520000000000000,San Antonio,Texas,United States,29.424119999999998,-98.493629999999996
439,87,USD,Public,increasing,no,no,5/8"",3.450000000000000,San Diego,California,United States,32.715710000000001,-117.164720000000003
440,89,USD,Public,increasing,no,no,5/8"",3.810000000000000,San Francisco,California,United States,37.774929999999998,-122.419420000000002
441,390,CRC, ,increasing,no,no, ,0.860000000000000,San Jose,San José,Costa Rica,9.933330000000000,-84.083330000000004
442,90,USD,Public,linear,no,Yes,5/8"",3.600000000000000,"San Jose, CA",California,United States,37.339390000000002,-121.894959999999998
443,436,BZD,Public,increasing,yes,no, ,4.060000000000000,San Pedro,Belize,Belize,17.915980000000001,-87.965900000000005
444,359,USD,Public,increasing,no,no, ,0.220000000000000,San Salvador,San Salvador,El Salvador,13.689349999999999,-89.187179999999998
445,354,ARS,Public,increasing,no,no, ,0.280000000000000,Santa Fe,Santa Fe,Argentina,-31.648810000000001,-60.708680000000001
446,11,CLP, ,linear,no,no, ,0.590000000000000,Santiago-de-Chile,Santiago Metropolitan,Chile,-33.456940000000003,-70.648269999999997
447,374,DOP,Public,increasing,no,no,15mm,0.170000000000000,Santo Domingo,Nacional,Dominican Republic,18.471860000000000,-69.892319999999998
448,9,BRL,PPP,increasing,no,no, ,0.810000000000000,São Paulo,São Paulo,Brazil,-23.547499999999999,-46.636110000000002
449,189,JPY,Public,increasing,no,no, ,1.550000000000000,Sapporo,Hokkaido,Japan,43.066670000000002,141.349999999999994
450,366,BAM,Public,increasing,no,no, ,0.650000000000000,Sarajevo,Federation of B&H,Bosnia and Herzegovina,43.848640000000003,18.356439999999999
451,62,RUB,Public,linear,no,no, ,0.390000000000000,Saratov,Saratovskaya Oblast,Russia,51.540559999999999,46.008609999999997
452,348,USD,public,increasing,no,Yes,<=3/4"",3.080000000000000,Seattle,Washington,United States,47.606209999999997,-122.332070000000002
453,351,RUB,Public,linear,no,no, ,0.610000000000000,Sebastopol,City of Sebastopol,Ukraine,44.588830000000002,33.522399999999998
454,188,JPY,Public,increasing,no,no, ,1.540000000000000,Sendai,Miyagi,Japan,38.266669999999998,140.866669999999999
455,182,KRW,Public,increasing,no,no,15mm,0.510000000000000,Seoul,Seoul,South Korea,37.566000000000003,126.978399999999993
456,408,MYR,Public,increasing,no,no, ,0.130000000000000,Seremban,Negeri Sembilan,Malaysia,2.729700000000000,101.938100000000006
457,140,EUR,Public,increasing,no,no,15mm,1.320000000000000,Seville,Andalusia,Spain,37.382829999999998,-5.973170000000000
458,409,MYR,Public,increasing,no,no, ,0.140000000000000,Shah Alam,Selangor,Malaysia,3.085070000000000,101.532809999999998
459,18,CNY,PPP,increasing,no,no, ,0.280000000000000,Shanghai,Shanghai,China,31.222220000000000,121.458060000000003
460,423,CNY,Public,increasing,no,no, ,0.270000000000000,Shantou,Guangdong,China,23.368140000000000,116.714789999999994
461,323,CNY,Public,increasing,no,no, ,0.340000000000000,Shenyang,Liaoning,China,41.792220000000000,123.432779999999994
462,260,CNY,PPP,increasing,no,no, ,0.390000000000000,Shenzhen,Guangdong,China,22.545539999999999,114.068299999999994
463,324,CNY,Public,increasing,no,no, ,0.630000000000000,Shijiazhuang,Hebei,China,38.041390000000000,114.478610000000003
464,272,SGD, ,increasing,no,no, ,1.430000000000000,Singapore,Central Singapore,Singapore,1.289670000000000,103.850070000000002
465,460,USD,Public,increasing,no,no,5/8"",1.540000000000000,Sioux Falls,South Dakota,United States,43.549970000000002,-96.700329999999994
466,403,MKD,Public,linear,no,no, ,0.350000000000000,Skopje,Karpoš,North Macedonia,41.996459999999999,21.431410000000000
467,10,BGN,Private,linear,no,no, ,0.950000000000000,Sofia,Sofia-Capital,Bulgaria,42.697510000000001,23.324149999999999
468,429,PLN,Private,linear,no,no, ,0.890000000000000,Sopot,Pomerania,Poland,54.441800000000001,18.560030000000001
469,485,AUD, ,increasing,no,no, ,5.490000000000000,South Tarawa,Gilbert Islands,Kiribati,1.327800000000000,172.976959999999991
470,453,GBP,Private,linear,no,Yes, ,1.900000000000000,Southampton,England,United Kingdom,50.903950000000002,-1.404280000000000
471,481,XCD, ,increasing,yes,no, ,1.210000000000000,St. George's,Saint George,Grenada,12.052880000000000,-61.752260000000000
472,474,XCD, ,increasing,yes,no, ,2.080000000000000,St. John's,Saint John,Antigua and Barbuda,17.120960000000000,-61.843290000000003
473,349,USD,public,decreasing,no,no, ,1.150000000000000,St. Louis,Missouri,United States,38.627270000000003,-90.197890000000001
474,61,RUB,Public,linear,no,Yes, ,0.490000000000000,St. Petersburg,St.-Petersburg,Russia,59.938630000000003,30.314129999999999
475,536,USD,Public,increasing,no,no, ,7.260000000000000,St. Thomas,Saint Thomas Island,U.S. Virgin Islands,18.341899999999999,-64.930700000000002
476,137,SEK, ,linear,yes,Yes, ,2.120000000000000,Stockholm,Stockholm,Sweden,59.332580000000000,18.064900000000002
477,231,EUR,Public,linear,no,no, ,2.010000000000000,Strasbourg,Grand Est,France,48.583919999999999,7.745530000000000
478,216,EUR, ,linear,no,Yes, ,3.400000000000000,Stuttgart,Baden-Württemberg,Germany,48.782319999999999,9.177020000000001
479,382,IDR,Public,increasing,yes,no, ,0.100000000000000,Surabaya,East Java,Indonesia,-7.249170000000000,112.750829999999993
480,479,FJD, ,increasing,no,no, ,0.070000000000000,Suva,Central,Fiji,-18.141610000000000,178.441489999999988
481,415,CNY,Public,increasing,no,no, ,0.300000000000000,Suzhou,Jiangsu,China,31.304079999999999,120.595380000000006
482,253,AUD,Public,linear,no,Yes, ,1.840000000000000,Sydney,New South Wales,Australia,-33.867849999999997,151.207320000000010
483,75,TWD,Public,increasing,no,no,13mm,0.210000000000000,Taipei,Taiwan,Taiwan,25.047760000000000,121.531850000000006
484,325,CNY,Public,increasing,no,no, ,0.500000000000000,Taiyuan,Shanxi,China,37.869439999999997,112.560280000000006
485,22,EUR,Private,linear,no,no, ,1.290000000000000,Tallinn,Harjumaa,Estonia,59.436959999999999,24.753530000000001
486,574,USD,Public,increasing,no,Yes,3/4"",0.840000000000000,Tampa,Florida,United States,27.947520000000001,-82.458430000000007
487,82,UZS,Public,linear,no,no, ,0.040000000000000,Tashkent,Toshkent Shahri,Uzbekistan,41.264650000000003,69.216269999999994
488,24,GEL,Private,linear,no,no, ,0.090000000000000,Tbilisi,T'bilisi,Georgia,41.694110000000002,44.833680000000001
489,25,HNL, ,increasing,no,no, ,0.090000000000000,Tegucigalpa,Francisco Morazán,Honduras,14.081799999999999,-87.206810000000004
490,31,IRR,Public,linear,no,no,1/2"" (12.5mm),0.090000000000000,Tehran,Tehrān,Iran,35.694389999999999,51.421509999999998
491,34,ILS, ,increasing,yes,no, ,2.080000000000000,Tel Aviv,Tel Aviv,Israel,32.080880000000001,34.780569999999997
492,466,INR,Public,increasing,yes,no,15mm,0.170000000000000,Thane,Maharashtra,India,19.197040000000001,72.963549999999998
493,162,EUR, ,decreasing,no,no, ,3.000000000000000,The Hague,South Holland,Netherlands,52.076670000000000,4.298610000000000
494,437,XCD,Public,increasing,yes,no, ,4.540000000000000,The Valley,The Valley,Anguilla (UK),18.217040000000001,-63.057830000000003
495,212,EUR, ,increasing,no,no,1/2"",1.040000000000000,Thessaloniki,Central Macedonia,Greece,40.643610000000002,22.930859999999999
496,14,CNY,Public,increasing,no,no, ,0.570000000000000,Tianjin,Tianjin,China,39.142220000000002,117.176670000000001
497,173,MXN,Public,increasing,yes,no, ,0.990000000000000,Tijuana,Baja California,Mexico,32.502699999999997,-117.003709999999998
498,372,ALL,Public,linear,no,no, ,0.870000000000000,Tirana,Tirana,Albania,41.327500000000001,19.818890000000000
499,192,JPY,Public,increasing,no,no, ,1.070000000000000,Tokyo,Tokyo,Japan,35.689500000000002,139.691710000000000
500,548,RUB,Public,linear,no,no, ,0.730000000000000,Tomsk,Tomsk Oblast,Russia,56.497709999999998,84.974369999999993
501,407,USD,Public,linear,no,Yes, ,2.060000000000000,Topeka,Kansas,United States,39.048330000000000,-95.678039999999996
502,243,CAD,Public,linear,yes,no, ,2.980000000000000,Toronto,Ontario,Canada,43.700110000000002,-79.416300000000007
503,537,USD, ,increasing,no,no, ,3.360000000000000,Tortola,Tortola,British Virgin Islands,18.426929999999999,-64.620790000000000
504,226,EUR,Private,linear,no,no, ,1.940000000000000,Toulouse,Occitanie,France,43.604259999999996,1.443670000000000
505,157,NOK, ,linear,no,no,1/2"",1.950000000000000,Trondheim,Trøndelag,Norway,63.430489999999999,10.395060000000001
506,350,USD,public,increasing,no,no, ,2.140000000000000,Tucson,Arizona,United States,32.221739999999997,-110.926479999999998
507,589,USD,Public,linear,no,no,3/4"",1.550000000000000,Tulsa,Oklahoma,United States,36.153979999999997,-95.992769999999993
508,280,TND,Public,linear,no,no,15mm,0.250000000000000,Tunis,Tūnis,Tunisia,36.818970000000000,10.165789999999999
509,205,EUR,Private,increasing,no,no, ,0.900000000000000,Turin,Piedmont,Italy,45.070489999999999,7.686820000000000
510,545,RUB,Public,linear,no,no, ,0.560000000000000,Tyumen,Tyumen’ Oblast,Russia,57.152220000000000,65.527220000000000
511,66,RUB,Public,linear,no,no, ,0.400000000000000,Ufa,Bashkortostan Republic,Russia,54.743060000000000,55.967790000000001
512,43,MNT,Public,linear,no,no, ,0.410000000000000,Ulaanbaatar,Ulaanbaatar,Mongolia,47.907710000000002,106.883240000000001
513,177,KRW,Public,increasing,no,no,13mm,0.650000000000000,Ulsan,Ulsan,South Korea,35.537219999999998,129.316669999999988
514,163,EUR, ,decreasing,no,no, ,1.980000000000000,Utrecht,Utrecht,Netherlands,52.090829999999997,5.122220000000000
515,486,CHF, ,linear,no,Yes,20,1.250000000000000,Vaduz,Vaduz,Liechtenstein,47.141509999999997,9.521540000000000
516,455,EUR,PPP,linear,no,no,15mm,1.450000000000000,Valencia,Valencia,Spain,39.469749999999998,-0.377390000000000
517,515,EUR, ,increasing,yes,no, ,5.560000000000000,Valletta,Il-Belt Valletta,Malta,35.899720000000002,14.514720000000001
518,244,CAD,Public,linear,no,no,1/2"",1.590000000000000,Vancouver,British Columbia,Canada,49.249659999999999,-123.119339999999994
519,202,EUR,Public,increasing,no,no, ,0.560000000000000,Venice,Veneto,Italy,45.437130000000003,12.332649999999999
520,495,SCR, ,increasing,no,no, ,1.010000000000000,Victoria,Labuan,Malaysia,5.276670000000000,115.241669999999999
521,518,MYR,Public,increasing,no,no, ,0.170000000000000,Victoria,Labuan,Malaysia,5.276670000000000,115.241669999999999
522,251,EUR, ,linear,no,no, ,2.330000000000000,Vienna,Vienna,Austria,48.208489999999998,16.372080000000000
523,512,LAK, ,increasing,yes,no, ,0.240000000000000,Vientiane,Vientiane Prefecture,Laos,17.966670000000001,102.599999999999994
524,556,EUR,Private,increasing,no,no,13mm,0.820000000000000,Vigo,Galicia,Spain,42.232819999999997,-8.722640000000000
525,39,EUR,Public,linear,no,no,15mm,0.770000000000000,Vilnius,Vilnius,Lithuania,54.689160000000001,25.279800000000002
526,580,USD,Public,linear,no,no,5/8"",1.590000000000000,Virginia Beach,Virginia,United States,36.852930000000001,-75.977990000000005
527,281,RUB,Public,linear,no,no, ,0.490000000000000,Vladivostok,Primorskiy (Maritime) Kray,Russia,43.105620000000002,131.873529999999988
528,59,RUB,Public,linear,no,no, ,0.360000000000000,Volgograd,Volgograd Oblast,Russia,48.719389999999997,44.501829999999998
529,282,RUB,Public,linear,no,no, ,0.400000000000000,Voronezh,Voronezj,Russia,51.672040000000003,39.184300000000000
530,153,PLN,Public,linear,no,no, ,1.150000000000000,Warsaw,Mazovia,Poland,52.229770000000002,21.011780000000002
531,100,USD,Public,increasing,no,Yes, ,2.100000000000000,Washington DC,"Washington, D.C.",United States,38.895110000000003,-77.036370000000005
532,490,USD, ,increasing,no,no, ,0.930000000000000,Weno,Chuuk,Micronesia,7.446480000000000,151.841350000000006
533,421,CNY,Public,increasing,no,no, ,0.350000000000000,Wenzhou,Zhejiang,China,27.999420000000001,120.666820000000001
534,464,USD,public,linear,no,no,5/8"",0.870000000000000,Wichita,Kansas,United States,37.692239999999998,-97.337540000000004
535,473,USD, ,increasing,no,Yes,5/8 & 3/4 inch,2.100000000000000,Wilmington,Delaware,United States,39.745950000000001,-75.546589999999995
536,283,NAD,Public,increasing,no,no,15mm,2.150000000000000,Windhoek,Khomas,Namibia,-22.559410000000000,17.083230000000000
537,581,CAD,Public,linear,no,no,5/8"",2.220000000000000,Winnipeg,Manitoba,Canada,49.884399999999999,-97.147040000000004
538,154,PLN,Public,linear,no,no, ,1.510000000000000,Wroclaw,Lower Silesia,Poland,51.100000000000001,17.033329999999999
539,262,CNY,Public,increasing,no,no, ,0.200000000000000,Wuhan,Hubei,China,30.583330000000000,114.266670000000005
540,425,CNY,Public,increasing,no,no, ,0.370000000000000,Wuxi,Jiangsu,China,31.568870000000000,120.288570000000007
541,426,CNY,Public,increasing,no,no, ,0.320000000000000,Xiamen,Fujian,China,24.479790000000001,118.081869999999995
542,326,CNY,Public,increasing,no,no, ,0.430000000000000,Xi'an,Shaanxi,China,34.258330000000001,108.928610000000006
543,571,CNY,Public,linear,no,no, ,0.260000000000000,Xining,Qinghai,China,36.625540000000001,101.757390000000001
544,406,MMK,Public,linear,yes,no, ,0.340000000000000,Yangon,Rangoon,Myanmar,16.805280000000000,96.156109999999998
545,491,AUD,Public,linear,yes,no, ,5.830000000000000,Yaren,Yaren,Nauru,-0.550850000000000,166.925199999999990
546,57,RUB,Public,linear,no,no, ,0.560000000000000,Yekaterinburg,Sverdlovsk,Russia,56.851900000000001,60.612200000000001
547,4,AMD,Private,linear,no,no, ,0.320000000000000,Yerevan,Yerevan,Armenia,40.181109999999997,44.513610000000000
548,572,CNY,Public,increasing,no,no, ,0.400000000000000,Yinchuan,Ningxia Hui Autonomous Region,China,38.468060000000001,106.273060000000001
549,191,JPY,Public,increasing,no,no, ,1.110000000000000,Yokohama,Kanagawa,Japan,35.433329999999998,139.650000000000006
550,263,HRK,Public,linear,no,no, ,1.460000000000000,Zagreb,City of Zagreb,Croatia,45.814439999999998,15.977980000000001
551,456,EUR,Public,increasing,no,no,15mm,0.670000000000000,Zaragoza,Aragon,Spain,41.656059999999997,-0.877340000000000
552,327,CNY,Public,increasing,no,no, ,0.500000000000000,Zhengzhou,Henan,China,34.757779999999997,113.648610000000005
553,328,CNY,Public,increasing,no,no, ,0.350000000000000,Zibo,Shandong,China,36.790559999999999,118.063329999999993
554,132,CHF, ,linear,no,Yes, ,1.980000000000000,Zurich,Zurich,Switzerland,47.366669999999999,8.550000000000001
555,193,JPY,Private,increasing,no,no, ,1.240000000000000, , , ,0.000000000000000,0.000000000000000
556,531,AFN, ,linear,yes,no,1/2"",0.400000000000000, , , ,0.000000000000000,0.000000000000000
557,138,EUR,Private,increasing,no,no, ,1.740000000000000, , , ,0.000000000000000,0.000000000000000
558,434,KYD,Private/Public,increasing,no,no,5/8"",4.580000000000000, , , ,0.000000000000000,0.000000000000000